대상시설명,위도,경도,소재지도로명주소,CCTV_300m,CCTV_500m,최근접_CCTV_거리,무인카메라_300m,무인카메라_500m,최근접_무인카메라_거리,표지판_300m,표지판_500m,최근접_표지판_거리,도로안전표지_300m,도로안전표지_500m,최근접_도로안전표지_거리,신호등_300m,신호등_500m,최근접_신호등_거리,횡단보도_300m,횡단보도_500m,최근접_횡단보도_거리,옐로카펫_300m,옐로카펫_500m,최근접_옐로카펫_거리,도로적색표면_300m,도로적색표면_500m,최근접_도로적색표면_거리,울타리_펜스_300m,울타리_펜스_500m,최근접_울타리_펜스_거리,CCTV설치여부,CCTV설치대수,보호구역도로폭,관할경찰서,안전시설_총합_300m,안전시설_총합_500m,시설_다양성_300m
중원초등학교,37.437855,127.167857,경기도 성남시 중원구 사기막골로31번길 46,18,48,85.6,0,1,443.2,15,22,76.5,0,4,443.3,0,4,380.2,0,4,387.8,1,2,0.0,5,11,86.5,12,24,76.7,1,3,0.0,성남중원경찰서,51,120,5
하원초등학교,37.446255,127.170236,경기도 성남시 중원구 광명로 396,16,45,41.9,2,5,117.3,15,23,91.6,6,10,0.0,10,17,0.1,6,10,0.1,2,4,0.0,7,15,99.2,21,32,84.8,1,2,0.0,성남중원경찰서,85,161,9
중부초등학교,37.451546,127.164951,경기도 성남시 중원구 자혜로 55,27,87,42.7,2,6,0.1,26,48,52.3,2,7,116.0,4,12,116.2,2,7,116.2,1,4,0.0,19,39,61.8,25,57,70.8,1,4,0.0,성남중원경찰서,108,267,9
상대원초등학교,37.442382,127.181591,경기도 성남시 중원구 순환로 214번길 16,5,14,75.2,1,2,0.1,21,22,51.4,2,4,187.9,3,5,119.7,2,6,183.3,1,1,0.0,8,8,69.6,30,30,48.2,1,3,0.0,성남중원경찰서,73,92,9
도촌초등학교,37.41473,127.158024,경기도 성남시 중원구 도촌남로 99,6,11,95.1,1,1,167.6,10,10,79.5,5,8,2.0,5,9,2.1,5,7,2.1,1,1,0.0,9,9,84.7,26,26,79.8,1,4,0.0,성남중원경찰서,68,82,9
구미초등학교,37.337756,127.118398,경기도 성남시 분당구 미금로22번길 25,5,17,60.2,1,2,0.1,30,36,50.2,6,14,3.1,17,19,108.7,6,13,0.1,1,2,0.0,17,21,44.8,27,30,39.3,1,3,0.0,분당경찰서,110,154,9
내정초등학교,37.372402,127.122264,경기도 성남시 분당구 내정로 174번길 19,13,36,28.7,4,5,76.3,6,19,24.4,1,8,129.5,10,12,243.1,1,8,128.1,1,1,0.0,2,5,91.6,4,19,27.6,1,2,15.0,분당경찰서,42,113,9
돌마초등학교,37.409099,127.130378,경기도 성남시 분당구 야탑로97번길 7,14,44,39.6,2,7,0.0,8,23,70.1,4,13,74.1,5,18,74.1,5,16,74.1,1,2,0.0,7,12,77.3,10,20,68.8,1,3,0.0,분당경찰서,56,155,9
미금초등학교,37.347422,127.115303,경기도 성남시 분당구 미금로 151,8,35,26.5,1,3,2.9,15,33,63.0,3,8,193.5,10,15,124.0,5,10,0.3,2,4,0.0,9,15,97.6,16,26,53.6,1,5,30.0,분당경찰서,69,149,9
백현초등학교,37.372193,127.111168,경기도 성남시 분당구 백현로 144번길 26,18,38,63.9,1,5,133.8,13,28,37.7,3,9,55.7,8,14,131.4,3,11,55.6,1,1,0.0,11,21,83.5,21,32,41.9,1,2,8.0,분당경찰서,79,159,9
분당초등학교,37.378988,127.129653,경기도 성남시 분당구 중앙공원로 32번길 20,4,17,53.4,2,4,0.0,11,21,43.2,2,6,226.7,5,16,268.7,3,6,226.8,1,2,0.0,3,10,65.6,12,25,38.8,1,3,9.0,분당경찰서,43,107,9
성남여수초등학교,37.419449,127.133081,경기도 성남시 중원구 여수울로 37,11,20,58.7,3,4,54.8,26,29,53.9,4,9,91.5,5,12,91.6,4,9,91.6,1,1,0.0,16,16,56.4,36,36,59.3,1,5,0.0,성남중원경찰서,106,136,9
탄천초등학교,37.361599,127.115645,경기도 성남시 분당구 내정로 20,16,27,67.7,3,5,67.7,8,19,55.1,5,14,86.4,8,15,137.6,7,14,86.4,1,2,0.0,8,15,64.1,16,29,60.0,1,3,30.0,분당경찰서,72,140,9
하탑초등학교,37.407326,127.126613,경기도 성남시 분당구 양현로 262,13,35,36.9,2,6,0.0,14,23,95.2,6,14,0.0,7,17,0.0,5,15,0.0,1,2,0.0,6,12,113.7,23,39,94.2,1,3,12.0,분당경찰서,77,163,9
늘푸른초등학교,37.358334,127.105671,경기도 성남시 분당구 백궁로 247,6,15,59.4,1,3,0.0,10,11,20.7,5,12,0.0,4,10,29.1,5,12,0.0,2,2,0.0,9,9,35.3,16,17,21.7,1,3,20.0,분당경찰서,58,91,9
보평초등학교,37.396039,127.117758,경기도 성남시 분당구 동판교로 154,17,41,47.3,2,4,46.7,8,10,53.3,5,14,3.7,7,13,87.4,4,12,0.2,1,1,0.0,15,16,34.1,16,16,28.8,1,6,0.0,분당경찰서,75,127,9
산운초등학교,37.389753,127.079005,경기도 성남시 분당구 판교로117번길 11,23,63,40.9,5,5,85.2,19,25,108.9,5,10,1.7,7,10,180.6,4,10,92.5,1,1,0.0,23,27,87.4,18,24,83.9,1,9,0.0,분당경찰서,105,175,9
운중초등학교,37.392419,127.06894,경기도 성남시 분당구 운중로 45번길 8,23,45,50.7,2,2,82.5,16,22,55.1,7,9,0.0,4,7,186.0,7,8,0.2,1,1,0.0,30,33,41.3,34,37,41.8,1,10,0.0,분당경찰서,124,164,9
낙생초등학교,37.394357,127.098914,경기도 성남시 분당구 서판교로74번길 11,19,39,41.3,2,2,5.9,15,23,37.0,7,11,5.8,13,15,50.8,7,12,5.9,1,1,0.0,14,18,46.6,23,30,34.2,1,12,0.0,분당경찰서,101,151,9
신백현초등학교,37.387579,127.111751,경기도 성남시 분당구 판교역로14번길 42,22,51,36.6,0,4,302.4,16,21,56.3,5,14,0.0,6,12,72.0,6,14,0.0,2,3,0.0,8,13,35.2,35,54,31.6,1,3,0.0,분당경찰서,100,186,8
성남화랑초등학교,37.390224,127.115888,경기도 성남시 분당구 동판교로 77,6,32,80.1,2,5,137.1,8,14,81.0,5,12,134.0,8,10,96.1,4,13,134.0,1,3,0.0,6,11,89.6,20,35,68.7,1,1,26.0,분당경찰서,60,135,9
성남은행초등학교,37.461002,127.170901,경기도 성남시 중원구 순환로 447번길 11,11,37,77.1,1,1,268.3,23,23,29.0,3,3,244.7,1,3,287.6,3,3,244.6,1,1,0.0,10,10,35.1,2,2,119.3,1,4,0.0,성남중원경찰서,55,83,9
성남중앙초등학교,37.436255,127.143529,경기도 성남시 중원구 원터로 94번길 7,16,53,37.3,5,9,113.3,13,49,34.5,6,11,0.0,5,14,2.6,6,11,2.6,1,1,0.0,16,32,39.5,13,29,45.5,1,5,0.0,성남중원경찰서,81,209,9
단남초등학교,37.442905,127.161374,경기도 성남시 중원구 광명로 300번길 25,38,117,47.0,10,16,87.9,21,42,69.8,5,12,126.9,15,24,37.4,6,18,127.0,1,3,0.0,17,28,66.6,30,48,70.4,1,2,6.0,성남중원경찰서,143,308,9
대원초등학교,37.436671,127.155099,경기도 성남시 중원구 희망로343번길 24,5,34,196.5,1,4,255.1,8,28,24.9,1,3,247.0,2,6,255.1,2,3,255.1,1,1,0.0,4,14,26.8,23,40,23.9,1,6,0.0,성남중원경찰서,47,133,9
대일초등학교,37.438468,127.164185,경기도 성남시 중원구 금상로 55번길 22,37,100,63.4,1,6,235.2,15,34,70.5,1,5,272.6,1,9,272.5,1,5,272.5,1,2,0.0,6,22,72.0,15,31,60.8,1,3,0.0,성남중원경찰서,78,214,9
대하초등학교,37.431908,127.151304,경기도 성남시 중원구 시민로 14,14,32,29.3,1,4,85.8,17,22,42.7,2,7,97.3,2,7,97.4,2,6,129.9,1,1,0.0,8,11,67.6,12,15,41.8,1,3,0.0,성남중원경찰서,59,105,9
성남제일초등학교,37.438906,127.149609,경기도 성남시 중원구 광명로 184번길 23,16,52,66.1,5,14,119.2,70,85,97.1,4,12,194.0,12,20,104.9,4,12,194.0,0,0,544.7,30,41,106.3,34,47,97.4,1,2,0.0,성남중원경찰서,175,283,8
성남북초등학교,37.4515,127.151474,경기도 성남시 수정구 희망로534번길 3,23,60,58.7,6,11,2.1,28,40,49.6,4,7,0.0,10,20,0.1,5,9,0.1,3,4,0.0,22,35,43.5,22,30,36.8,1,6,0.0,성남수정경찰서,123,216,9
성남수정초등학교,37.436212,127.132786,경기도 성남시 수정구 제일로 123번길 9,33,97,15.5,0,6,320.2,8,13,10.5,5,9,79.9,6,10,121.2,5,8,80.1,1,1,0.0,5,16,64.3,31,38,3.1,1,6,0.0,성남수정경찰서,94,198,8
수진초등학교,37.444944,127.133465,경기도 성남시 수정구 탄리로 95번길 16,40,116,23.8,1,10,157.5,38,50,24.4,6,15,56.1,8,22,56.1,5,13,56.1,4,4,0.0,18,23,111.8,26,40,30.5,1,10,0.0,성남수정경찰서,146,293,9
희망대초등학교,37.447498,127.149115,경기도 성남시 수정구 공원로 370번길 29,20,80,66.5,5,14,94.6,14,42,43.8,0,17,306.3,10,28,0.1,0,15,306.3,1,5,0.0,10,33,48.1,14,67,64.3,1,5,0.0,성남수정경찰서,74,301,7
성남서초등학교,37.448545,127.129403,경기도 성남시 수정구 태평로 19,16,52,37.0,2,4,34.4,10,31,18.6,7,11,28.8,7,14,1.9,6,11,28.8,1,3,0.0,6,18,106.7,14,32,26.4,1,4,0.0,성남수정경찰서,69,176,9
성남신흥초등학교,37.450552,127.143485,경기도 성남시 수정구 공원로 436번길 17,36,89,114.1,5,10,135.4,19,29,94.9,7,14,117.5,8,15,76.5,6,11,123.2,1,2,0.0,9,19,123.5,21,32,93.5,1,2,8.0,성남수정경찰서,112,221,9
단대초등학교,37.453611,127.157748,경기도 성남시 수정구 단대로 30,23,72,75.9,3,6,110.6,13,25,81.8,2,7,126.7,5,14,0.1,5,11,126.7,1,4,0.0,15,26,72.6,22,46,68.6,1,9,0.0,성남수정경찰서,89,211,9
복정초등학교,37.46247,127.130386,경기도 성남시 수정구 성남대로 1480번길 25,11,21,82.0,1,2,188.2,11,15,70.3,0,3,348.7,1,2,137.1,0,3,348.7,1,1,0.0,12,14,81.6,18,23,69.4,1,6,0.0,성남수정경찰서,55,84,7
성남양지초등학교,37.459218,127.160884,경기도 성남시 수정구 논골로 36번길 33,26,59,76.1,1,2,70.8,10,11,58.0,6,10,222.4,5,10,209.5,5,10,222.4,1,1,0.0,10,10,56.1,5,6,56.9,1,3,0.0,성남수정경찰서,69,119,9
위례고운초등학교,37.471437,127.145794,경기도 성남시 수정구 위례순환로 155,7,20,82.0,3,7,6.2,23,34,75.3,0,0,1326.1,7,18,6.2,0,0,1336.7,1,2,0.0,12,18,87.5,16,28,78.2,0,0,16.0,성남수정경찰서,69,127,7
위례한빛초등학교,37.465766,127.147017,경기도 성남시 수정구 위례동로 55,7,23,63.0,2,3,0.2,13,40,73.7,0,0,792.0,4,12,118.1,0,0,795.9,1,1,0.0,6,21,74.7,17,43,57.3,1,1,9.5,성남수정경찰서,50,143,7
위례푸른초등학교,37.470731,127.150981,경기도 성남시 수정구 위례순환로 205,8,22,92.7,3,4,1.9,25,39,80.8,0,0,1007.1,6,12,1.9,0,0,1071.8,1,2,0.0,11,22,55.7,22,36,56.5,0,0,0.0,성남수정경찰서,76,137,7
위례중앙초등학교,37.471899,127.135874,경기도 성남시 수정구 위례순환로 71,9,14,56.0,1,2,0.1,11,15,91.1,0,0,1104.1,3,9,0.1,0,0,1104.1,1,1,0.0,8,14,90.9,16,20,78.4,1,1,0.0,성남수정경찰서,49,75,7
금상초등학교,37.443599,127.165995,경기도 성남시 중원구 금상로 97,41,94,46.0,8,12,5.4,15,40,57.3,5,12,136.7,12,25,74.2,3,10,136.7,2,4,0.0,10,29,61.2,8,38,58.3,1,9,0.0,성남중원경찰서,104,264,9
상원초등학교,37.453884,127.162776,경기도 성남시 중원구 은행로 6,28,79,72.5,4,7,4.9,13,33,77.9,4,15,97.9,5,21,97.7,4,16,97.9,2,4,0.0,15,36,65.1,27,57,60.7,1,5,0.0,성남중원경찰서,102,268,9
불정초등학교,37.361254,127.119496,경기도 성남시 분당구 돌마로 250,13,38,42.8,2,5,53.2,8,26,21.0,6,10,123.5,2,13,250.2,4,9,123.6,1,2,0.0,2,10,35.9,10,32,57.2,1,3,35.0,분당경찰서,48,145,9
상탑초등학교,37.406207,127.145695,경기도 성남시 분당구 판교로 647,9,16,60.5,1,1,0.3,27,34,45.9,5,8,2.1,5,8,117.2,4,8,117.2,2,2,0.0,6,9,87.7,22,29,43.8,1,2,0.0,분당경찰서,81,115,9
서현초등학교,37.382576,127.12855,경기도 성남시 분당구 중앙공원로 39번길 12,11,26,79.6,1,3,0.0,13,21,77.1,4,7,190.1,2,10,154.4,5,7,189.6,1,2,0.0,8,9,76.7,10,15,63.2,1,3,12.0,분당경찰서,55,100,9
성남신기초등학교,37.366582,127.11106,경기도 성남시 분당구 황새울로 74,13,37,63.3,2,4,0.0,11,12,144.7,7,12,186.3,5,17,266.4,6,10,186.3,1,1,0.0,7,7,108.9,12,13,97.6,1,3,20.0,분당경찰서,64,113,9
성남장안초등학교,37.372662,127.144459,경기도 성남시 분당구 장안로 51번길 10,15,44,69.2,1,3,0.0,22,37,108.5,4,9,220.8,1,11,169.9,4,9,218.9,1,2,0.0,10,22,117.5,20,30,104.3,1,3,14.0,분당경찰서,78,167,9
안말초등학교,37.393154,127.125984,경기도 성남시 분당구 양현로 104,15,34,108.6,2,4,0.2,15,32,69.1,7,13,0.0,11,14,73.6,7,13,0.2,1,2,0.0,6,18,106.7,24,39,67.0,1,2,0.0,분당경찰서,88,169,9
야탑초등학교,37.416616,127.125627,경기도 성남시 분당구 양현로 400,11,27,83.3,6,6,50.4,15,15,14.3,6,14,120.0,7,14,119.9,6,13,119.9,1,1,0.0,3,3,42.6,21,21,11.8,1,8,12.0,분당경찰서,76,114,9
오리초등학교,37.344351,127.115379,경기도 성남시 분당구 미금로 121,9,31,59.6,1,2,0.2,12,27,48.4,4,6,1.3,11,14,234.4,4,8,0.2,2,4,0.0,9,17,55.8,7,22,84.9,1,3,30.0,분당경찰서,59,131,9
이매초등학교,37.39721,127.126493,경기도 성남시 분당구 양현로 146,15,33,62.9,3,4,0.0,5,13,100.8,3,10,0.0,4,11,0.0,3,10,0.0,1,2,0.0,2,8,109.6,11,23,87.2,1,2,12.0,분당경찰서,47,114,9
청솔초등학교,37.354657,127.1141,경기도 성남시 분당구 금곡로 243,6,18,38.0,1,2,0.1,9,17,208.9,5,11,0.0,6,12,26.6,4,11,0.1,1,1,0.0,6,10,87.0,8,14,49.7,1,3,25.0,분당경찰서,46,96,9
당촌초등학교,37.373689,127.131262,경기도 성남시 분당구 분당로 196,8,23,63.7,1,3,0.0,5,15,66.0,5,9,0.0,4,18,78.1,5,9,0.0,1,2,0.0,2,9,72.3,13,39,53.4,1,3,24.0,분당경찰서,44,127,9
한솔초등학교,37.366777,127.118015,경기도 성남시 분당구 돌마로 303,13,36,66.1,1,1,99.2,3,13,78.4,3,9,231.7,0,10,304.0,1,8,231.6,1,1,0.0,1,3,85.2,9,16,95.4,1,1,35.0,분당경찰서,32,97,8
수내초등학교,37.367765,127.124663,경기도 성남시 분당구 백현로 243번길 12,14,36,32.6,1,3,0.4,7,14,25.5,3,10,180.8,9,18,121.9,3,8,180.7,2,2,0.0,6,12,29.8,11,20,33.1,1,3,8.0,분당경찰서,56,123,9
성남송현초등학교,37.405458,127.116346,경기도 성남시 분당구 동판교로 258,8,26,44.8,3,4,87.9,14,14,57.0,4,12,61.3,4,13,135.2,6,13,6.0,1,1,0.0,9,12,43.1,38,46,45.9,1,5,0.0,분당경찰서,87,141,9
판교초등학교,37.387282,127.091443,경기도 성남시 분당구 판교원로 231,16,47,104.7,1,1,104.7,17,22,107.6,5,11,70.4,9,14,176.2,5,12,70.2,1,1,0.0,15,24,104.8,26,37,100.2,1,5,0.0,분당경찰서,95,169,9
성남동초등학교,37.449215,127.162178,경기도 성남시 중원구 자혜로 32번길 10,25,84,67.5,0,7,342.0,18,42,54.6,1,7,148.6,4,16,135.8,1,9,148.3,1,2,0.0,16,33,60.0,15,51,56.0,1,5,0.0,성남중원경찰서,81,251,8
태평초등학교,37.444953,127.131694,경기도 성남시 수정구 남문로 32번길 7,38,107,37.7,2,12,1.2,31,54,38.2,9,22,129.2,10,22,1.2,9,16,129.2,4,5,0.0,19,26,26.7,32,47,46.4,1,6,0.0,성남수정경찰서,154,311,9
성수초등학교,37.433766,127.127238,경기도 성남시 수정구 모란로 11,29,68,67.3,5,7,96.5,3,7,95.2,3,11,91.6,3,11,91.8,3,6,91.8,1,1,0.0,5,12,102.1,8,14,89.6,1,9,6.0,성남수정경찰서,60,137,9
금빛초등학교,37.447331,127.140567,경기도 성남시 수정구 남문로 112,64,145,49.7,2,10,65.5,22,46,40.0,5,17,1.9,3,16,2.0,5,14,2.0,1,4,0.0,17,28,33.2,22,52,34.3,1,7,0.0,성남수정경찰서,141,332,9
왕남초등학교,37.428469,127.098687,경기도 성남시 수정구 대왕판교로 959번길 48,19,43,73.4,4,8,98.4,19,21,72.5,2,13,192.8,8,17,33.9,0,3,306.4,1,1,0.0,12,14,75.2,28,28,70.7,1,5,0.0,성남수정경찰서,93,148,8
성남초등학교,37.446085,127.144145,경기도 성남시 수정구 수정로 233,40,115,46.2,3,11,85.5,16,55,84.7,7,18,120.2,5,22,147.9,5,17,120.2,2,4,0.0,12,39,96.3,30,71,82.9,1,4,0.0,성남수정경찰서,120,352,9
검단초등학교,37.429483,127.144034,경기도 성남시 중원구 원터로 25,20,40,44.9,1,2,0.0,11,14,60.0,4,5,182.1,5,6,182.0,4,5,182.0,1,1,0.0,15,15,50.4,8,8,47.3,1,4,7.0,성남중원경찰서,69,96,9
불곡초등학교,37.340984,127.11973,경기도 성남시 분당구 무지개로 129,4,19,66.8,1,2,0.2,9,30,88.7,4,9,0.0,1,18,125.5,4,8,0.1,1,2,0.0,8,22,92.9,7,26,89.5,1,3,20.0,분당경찰서,39,136,9
서당초등학교,37.374602,127.134587,경기도 성남시 분당구 돌마로 476번길 30,13,28,60.3,2,5,0.2,16,36,69.6,4,11,144.9,4,16,157.9,4,11,145.0,1,3,0.0,7,14,86.1,35,57,66.1,1,3,8.0,분당경찰서,86,181,9
성남매송초등학교,37.402183,127.122403,경기도 성남시 분당구 탄천로 97,10,35,30.0,1,4,0.1,7,14,91.9,2,12,0.0,2,14,0.1,2,11,0.1,1,1,0.0,3,6,125.2,18,38,93.1,1,3,13.0,분당경찰서,46,135,9
성남정자초등학교,37.374517,127.104912,경기도 성남시 분당구 분당수서로 442,2,10,87.8,2,7,87.8,4,6,224.6,2,6,137.3,2,4,256.1,2,7,279.2,1,1,0.0,6,7,226.2,6,7,217.7,1,2,0.0,분당경찰서,27,55,9
양영초등학교,37.37466,127.140091,경기도 성남시 분당구 불정로 406번길 17,19,52,76.1,1,4,0.0,28,55,97.8,3,7,112.9,1,14,110.9,3,7,111.0,1,3,0.0,13,23,111.5,29,59,94.3,1,4,0.0,분당경찰서,98,224,9
중탑초등학교,37.413924,127.139686,경기도 성남시 분당구 벌말로 68,13,25,55.3,2,2,0.1,12,18,81.0,7,10,90.9,7,12,0.1,7,10,90.8,1,1,0.0,14,15,65.7,45,45,69.8,1,2,18.0,분당경찰서,108,138,9
초림초등학교,37.376826,127.117592,경기도 성남시 분당구 수내로 90번길 26,13,37,96.5,1,3,0.0,12,18,71.7,0,7,338.0,3,12,145.4,0,8,325.8,1,1,0.0,2,3,84.4,7,14,46.7,1,3,8.0,분당경찰서,39,103,7
판교대장초등학교,37.368279,127.069713,경기도 성남시 분당구 판교대장로 5길 71,24,45,54.8,2,5,54.8,34,35,58.7,0,0,689.5,11,18,137.9,0,0,739.5,0,0,2525.0,16,16,78.8,33,33,77.7,1,3,18.0,분당경찰서,120,152,6
미래유치원,37.452885,127.150066,경기도 성남시 수정구 수정로 332번길 6-4,18,48,36.3,4,10,197.2,20,29,44.8,2,7,74.9,6,17,69.6,2,9,74.7,2,3,197.9,14,24,32.1,14,23,64.3,1,4,4.0,성남수정경찰서,82,170,9
성체유치원,37.439656,127.137203,경기도 성남시 수정구 탄리로 39,36,106,60.5,2,12,205.6,13,26,41.1,3,10,0.0,3,13,70.9,2,10,0.2,0,0,546.6,3,10,36.6,12,24,15.3,1,4,5.0,성남수정경찰서,74,211,8
신흥성모유치원,37.449077,127.143242,경기도 성남시 수정구 공원로 432,51,108,30.1,4,12,0.1,28,43,27.6,11,16,0.0,7,19,0.1,9,14,0.1,1,4,165.4,14,28,28.9,26,49,21.1,1,1,30.0,성남수정경찰서,151,293,9
은솔유치원,37.467824,127.138154,경기도 성남시 수정구 위례서일로1길 24,14,23,65.8,4,7,176.5,6,24,48.3,0,0,1074.6,6,14,153.0,0,0,1074.6,0,1,495.8,12,24,15.4,2,27,15.3,0,0,0.0,성남수정경찰서,44,120,6
위례새초롱유치원,37.469683,127.147866,경기도 성남시 수정구 위례순환로4길 2,14,23,26.9,2,8,272.9,29,49,15.7,0,0,1058.9,7,15,4.7,0,0,1073.8,2,3,267.3,17,28,20.9,28,47,18.1,0,0,10.0,성남수정경찰서,99,173,7
위례하늘유치원,37.467037,127.151134,경기도 성남시 수정구 위례동이로 14,10,19,52.8,1,3,245.0,11,36,110.2,0,0,648.1,5,9,124.3,0,0,678.9,0,2,389.9,7,20,35.7,12,41,35.6,1,1,10.0,성남수정경찰서,46,130,6
고등나래 유치원,37.426969,127.096496,경기도 성남시 수정구 청계산로 2길 34,17,38,27.2,4,8,91.4,10,21,13.9,0,4,301.5,6,13,102.8,0,2,304.4,1,1,255.4,5,14,17.1,11,28,14.0,0,0,8.0,성남수정경찰서,54,129,7
은서유치원,37.443605,127.134977,경기도 성남시 수정구 탄리로 95번길 7-17,36,108,17.5,3,12,209.1,29,49,26.5,5,15,158.8,7,19,37.4,5,13,158.9,2,4,200.0,9,23,52.8,13,42,90.8,1,4,4.0,성남수정경찰서,109,285,9
선경유치원,37.450411,127.162262,경기도 성남시 중원구 자혜로 17번길 16,25,83,75.6,3,6,268.9,22,53,40.7,1,10,96.8,6,17,93.0,1,13,96.7,2,4,133.2,17,46,37.2,27,72,43.4,1,4,12.0,성남중원경찰서,104,304,9
예원유치원,37.435032,127.143201,경기도 성남시 중원구 원터로 93번길 3,17,40,22.3,2,8,30.1,14,26,52.9,5,11,139.0,5,12,139.6,5,11,139.6,1,1,139.0,12,21,23.2,12,20,23.3,1,5,6.0,성남중원경찰서,73,150,9
다솜유치원,37.447962,127.163685,경기도 성남시 중원구 산성대로 408번길 48,35,83,16.1,1,8,283.8,19,42,38.6,3,9,190.3,4,19,190.3,3,8,190.3,1,2,192.6,15,28,55.4,11,40,25.6,1,1,5.0,성남중원경찰서,92,239,9
도촌유치원,37.413897,127.149775,경기도 성남시 중원구 도촌남로 22-1,13,19,47.0,1,1,0.2,7,7,16.1,5,9,0.4,5,11,0.2,5,9,0.2,0,0,734.4,6,6,22.7,20,20,16.6,0,0,0.0,성남중원경찰서,62,82,8
아름다운유치원,37.367591,127.125773,경기도 성남시 분당구 수내로 192번길 25,14,37,69.3,1,2,99.9,6,12,60.0,3,10,97.6,9,18,91.1,3,8,97.1,2,2,100.0,6,12,45.6,10,18,52.9,1,3,8.0,분당경찰서,54,119,9
안촌 유치원,37.368171,127.110392,경기도 성남시 분당구 느티로 70,18,44,61.5,2,9,186.3,11,21,43.0,4,12,0.0,0,20,301.0,3,12,0.0,1,2,186.3,7,18,75.1,12,20,86.7,1,1,13.0,분당경찰서,58,158,8
세화유치원,37.372737,127.136164,경기도 성남시 분당구 불정로 362,11,33,102.0,1,4,249.8,22,45,68.1,5,9,150.8,3,20,92.5,5,10,150.6,1,3,249.9,6,19,167.6,37,64,102.0,1,5,6.0,분당경찰서,91,207,9
분당중앙유치원,37.373451,127.141671,경기도 성남시 분당구 분당로 263번길 61,21,49,18.0,3,3,177.7,34,56,12.1,4,10,88.0,2,11,220.5,4,10,86.6,2,2,193.8,15,25,18.8,29,50,13.5,1,1,10.0,분당경찰서,114,216,9
꿈터 유치원,37.347269,127.113122,경기도 성남시 분당구 미금일로 58,15,39,104.5,2,6,190.7,14,35,95.0,2,9,0.0,10,19,146.7,4,11,0.2,2,4,193.5,7,17,99.4,18,29,90.2,1,1,7.0,분당경찰서,74,169,9
배성유치원,37.405999,127.142401,경기도 성남시 분당구 판교로 624-1,8,20,61.7,1,1,291.6,17,29,68.8,3,9,166.5,2,9,165.9,2,8,165.9,2,2,291.9,6,9,62.6,17,26,64.2,1,1,17.0,분당경찰서,58,113,9
이솔유치원,37.352756,127.112602,경기도 성남시 분당구 미금로 232,9,28,22.4,2,6,211.9,14,23,32.8,5,11,0.1,5,17,50.9,5,12,188.1,1,1,249.4,8,12,17.0,12,19,16.9,1,5,24.0,분당경찰서,61,129,9
성모 유치원,37.340099,127.124419,경기도 성남시 분당구 구미로 130번길 20,7,10,36.1,0,1,425.9,4,8,74.3,1,6,293.6,0,1,406.2,1,5,293.7,0,1,426.1,2,6,30.0,4,8,28.4,1,4,8.0,분당경찰서,19,46,6
판교샘유치원,37.392021,127.072039,경기도 성남시 분당구 산운로 98,19,53,108.1,0,4,350.9,15,29,115.7,2,11,234.3,1,7,251.4,4,10,234.4,1,1,277.3,19,37,111.1,9,43,117.0,1,1,7.0,분당경찰서,70,195,8
건영장안유치원,37.371127,127.140849,경기도 성남시 분당구 장안로 25번길 28,15,43,28.8,1,3,98.5,30,57,72.8,6,10,0.0,9,13,82.0,6,10,0.3,0,2,361.8,18,27,89.3,30,49,81.8,1,1,12.0,분당경찰서,115,214,8
뽀뽀뽀유치원,37.415425,127.138017,경기도 성남시 분당구 양현로 507,9,20,57.4,2,2,51.6,12,25,79.7,6,12,0.0,4,14,0.0,6,12,0.0,1,1,222.7,14,20,32.6,39,58,93.6,1,4,12.0,분당경찰서,93,164,9
창조유치원,37.359154,127.124992,경기도 성남시 분당구 불곡로17번길 8,30,35,30.0,0,1,497.5,10,10,34.0,1,4,200.9,0,1,480.1,1,2,199.9,0,0,539.0,4,4,48.1,0,0,508.6,1,1,6.0,분당경찰서,46,57,5
해나유치원,37.390831,127.09829,경기도 성남시 분당구 서판교로44번길 3,18,48,22.5,1,3,143.0,17,24,26.1,5,13,118.3,2,18,102.8,4,13,46.9,0,1,395.9,12,21,34.4,17,34,38.9,1,1,6.0,분당경찰서,76,175,8
꾸러기유치원,37.403847,127.127335,경기도 성남시 분당구 양현로 220,9,30,112.7,1,5,272.1,10,20,157.3,3,10,58.0,4,13,58.0,3,11,58.0,0,2,392.1,4,9,168.6,19,36,158.4,1,5,22.0,분당경찰서,53,136,8
샛별유치원,37.371468,127.129754,경기도 성남시 분당구 수내로 201,7,22,73.2,1,1,280.6,4,10,228.0,2,8,0.0,4,11,238.6,2,9,0.1,1,1,280.6,4,7,225.8,6,20,215.0,1,1,38.0,분당경찰서,31,89,9
성마르코유치원,37.410832,127.133182,경기도 성남시 분당구 매화로37번길 6,23,52,24.5,0,3,313.8,17,20,24.3,4,10,35.8,8,18,36.5,6,13,36.5,0,1,313.8,8,10,27.8,6,27,20.1,1,1,0.0,분당경찰서,72,154,7
은혜유치원,37.360908,127.111946,경기도 성남시 분당구 내정로7번길 24,15,31,0.7,3,4,257.4,11,12,55.6,5,10,77.4,0,14,306.0,6,12,77.5,0,1,335.8,13,13,36.5,11,17,18.1,1,1,0.0,분당경찰서,64,114,7
숲리라유치원,37.469683,127.147866,경기도 성남시 수정구 위례순환로4길 2,14,23,26.9,2,8,272.9,29,49,15.7,0,0,1058.9,7,15,4.7,0,0,1073.8,2,3,267.3,17,28,20.9,28,47,18.1,1,1,0.0,분당경찰서,99,173,7
즐거운유치원,37.351408,127.111941,경기도 성남시 분당구 미금로 215,14,34,59.3,4,9,108.5,15,27,66.2,4,13,160.8,5,18,132.5,4,14,232.8,0,1,408.6,7,15,43.1,12,28,33.7,1,1,15.0,분당경찰서,65,159,8
희영유치원,37.388294,127.114186,경기도 성남시 분당구 동판교로 49,21,40,102.5,2,3,75.5,16,22,25.7,7,9,42.7,8,12,140.8,7,11,42.3,3,3,229.4,10,15,97.1,35,54,23.9,0,0,0.0,분당경찰서,109,169,9
혜성유치원,37.444509,127.160252,경기도 성남시 중원구 광명로 308,39,113,19.2,6,13,68.8,10,38,24.6,4,13,161.0,13,26,29.0,10,20,35.1,1,1,204.0,6,28,41.8,20,42,205.8,0,0,0.0,성남중원경찰서,109,294,9
단대어린이집,37.449645,127.155665,경기도 성남시 수정구 희망로506번길 21,37,79,20.5,0,8,335.7,23,41,61.8,5,9,149.5,8,19,149.3,8,13,149.3,1,4,175.1,16,39,33.2,19,44,104.7,1,1,5.0,성남수정경찰서,117,256,8
산성어린이집,37.453007,127.150387,경기도 성남시 수정구 수정남로 269,19,52,36.3,4,10,183.1,20,29,31.2,2,7,92.9,7,16,87.7,2,9,92.6,2,3,193.1,15,24,25.3,14,23,64.1,1,4,0.0,성남수정경찰서,85,173,9
성남어린이집,37.447702,127.141485,경기도 성남시 수정구 시민로222번길 6,67,135,15.4,4,9,55.8,30,48,52.5,8,16,55.5,5,15,91.1,6,14,55.8,3,4,90.9,19,29,58.9,27,53,43.7,1,1,5.0,성남수정경찰서,169,323,9
성현어린이집,37.438454,127.138715,경기도 성남시 수정구 탄리로17번길 6,33,91,17.9,2,7,218.6,12,27,22.1,4,11,30.6,3,10,30.5,3,10,30.5,0,1,490.3,3,14,44.2,7,31,128.0,1,1,4.0,성남수정경찰서,67,202,8
신흥제2어린이집,37.449202,127.144413,경기도 성남시 수정구 수정로257번길 18,38,98,53.0,6,10,104.3,22,37,19.0,10,16,50.0,9,24,72.5,8,14,50.0,1,5,171.0,11,25,88.6,27,44,83.1,1,1,4.0,성남수정경찰서,132,273,9
리플플러스어린이집,37.44181,127.128384,경기도 성남시 수정구 성남대로1250번길 7-2,33,90,47.8,7,15,181.0,4,20,13.0,13,17,127.4,9,15,161.0,9,13,161.0,0,2,455.6,3,14,27.7,2,22,288.9,1,1,5.0,성남수정경찰서,80,208,8
한양어린이집,37.435594,127.1281,경기도 성남시 수정구 성남대로 1185,36,82,25.1,4,7,60.2,5,9,65.5,2,9,123.4,2,9,101.3,2,7,123.4,1,2,217.0,6,9,25.4,12,30,29.9,1,1,11.0,성남수정경찰서,70,164,9
신흥제3어린이집,37.443531,127.148854,경기도 성남시 수정구 공원로349번길 8,30,76,34.7,4,12,159.4,12,55,20.9,5,12,91.7,6,20,39.7,5,13,91.7,0,1,441.7,13,34,28.9,23,63,104.3,1,1,5.0,성남수정경찰서,98,286,8
복정어린이집,37.461129,127.130488,경기도 성남시 수정구 복정로96번길 30-1,8,20,26.7,1,1,216.4,9,13,22.8,0,2,381.5,1,2,133.7,0,2,386.9,1,1,149.4,12,12,27.7,18,20,67.4,1,4,7.0,성남수정경찰서,50,73,7
복정2어린이집,37.463264,127.129126,경기도 수정구 복정로 118번길 20,16,23,45.6,2,2,153.3,14,15,36.6,1,3,258.9,1,3,172.7,1,3,244.7,1,1,142.0,14,14,21.1,22,23,41.6,0,0,4.0,성남수정경찰서,72,87,9
아이세상 어린이집,37.4422,127.134779,경기도 성남시 수정구 수정로 135번길5-1,37,103,47.9,5,13,77.5,22,49,22.2,2,15,96.3,5,18,96.3,2,14,96.3,0,4,326.4,8,24,11.1,17,41,196.0,0,0,0.0,성남수정경찰서,98,281,8
다솜어린이집,37.434004,127.166096,경기도 성남시 중원구 박석로 14,13,41,18.9,0,4,391.2,3,8,8.3,2,5,175.9,2,5,175.8,2,5,175.8,0,1,455.6,0,1,429.0,0,8,369.0,1,1,8.0,성남중원경찰서,22,78,5
중앙동어린이집,37.442671,127.156555,경기도 성남시 중원구 광명로264번길 9,35,79,20.8,2,8,236.4,14,27,17.6,6,12,0.7,6,19,0.5,9,21,0.7,0,1,426.2,7,19,18.6,19,44,13.1,1,1,0.0,성남중원경찰서,98,230,8
금광2동제2어린이집,37.448432,127.163031,경기도 성남시 중원구 산성대로420번길 36,33,80,17.9,0,8,359.0,19,40,45.9,2,7,197.6,4,18,197.4,2,9,197.4,1,2,115.1,16,28,14.1,14,38,46.6,1,1,3.0,성남중원경찰서,91,230,8
하대원어린이집,37.427838,127.149429,경기도 성남시 중원구 마지로155번길 27,18,32,27.0,2,3,112.0,4,26,32.6,3,5,140.9,3,5,140.9,2,5,140.9,0,1,481.9,1,17,23.7,0,14,346.7,1,1,4.0,성남중원경찰서,33,108,7
서광어린이집,37.405702,127.14948,경기도 성남시 분당구 판교로 685,4,11,60.1,0,1,339.3,16,35,63.2,2,5,82.7,6,9,79.6,4,6,79.6,0,2,339.0,2,6,222.8,11,29,85.5,1,4,17.0,분당경찰서,45,104,7
분당어린이집,37.368598,127.143274,경기도 성남시 분당구 장안로26번길 12,24,46,21.2,0,2,438.3,5,26,17.2,5,12,159.4,11,11,248.3,5,13,159.6,0,1,463.9,6,17,19.7,0,16,312.7,1,1,6.0,분당경찰서,56,144,6
판교어린이집,37.385948,127.088207,경기도 성남시 분당구 판교원로 200,12,27,37.3,0,1,313.9,10,17,124.6,6,10,32.5,4,9,211.6,7,10,0.0,0,1,322.1,12,17,50.1,22,30,47.5,1,1,7.0,분당경찰서,73,122,7
서현어린이집,37.382447,127.126079,경기도 성남시 분당구 중앙공원로31번길 32,12,26,15.2,2,3,218.8,12,17,45.7,1,9,288.0,3,4,242.1,1,11,288.0,1,2,218.8,7,8,32.4,8,13,72.3,1,4,6.0,분당경찰서,47,93,9
성남생명숲어린이집,37.371025,127.115253,경기도 성남시 분당구 내정로119번길 2,25,42,27.4,0,2,445.3,9,25,15.6,1,5,114.4,1,15,111.4,1,5,113.3,0,1,383.6,8,16,16.5,6,31,15.5,1,1,10.0,분당경찰서,51,142,7
갈보리어린이집,37.390494,127.132889,경기도 성남시 분당구 이매로132,9,18,59.3,1,1,291.6,5,9,30.3,0,2,483.6,0,1,483.8,0,2,483.8,0,0,677.9,10,16,22.2,4,7,34.7,1,3,0.0,분당경찰서,29,56,5
휴맥스어린이집,37.370358,127.095881,경기도 성남시 분당구 궁내로 52,5,13,32.1,0,0,776.0,2,2,104.0,0,2,488.9,0,0,521.8,0,2,489.5,0,0,922.4,3,3,31.4,0,0,817.7,0,0,9.0,분당경찰서,10,22,3
늘사랑어린이집,37.408334,127.122855,경기도 성남시 분당구 야탑로 20,9,26,99.5,1,4,287.2,9,12,31.4,4,15,0.1,4,16,53.9,4,16,0.3,0,1,350.3,3,5,133.9,11,23,120.0,1,1,15.0,분당경찰서,45,118,8
삼평어린이집,37.406109,127.115836,경기도 성남시 분당구 동판교로 268,9,20,33.2,3,4,116.0,13,14,30.4,4,9,4.6,4,12,50.3,6,11,4.4,1,1,85.3,8,11,31.2,34,44,20.1,1,1,8.0,분당경찰서,82,126,9
판교제2어린이집,37.391851,127.090871,경기도 성남시 분당구 운중로225번길 37,20,36,56.0,1,1,5.5,6,9,43.0,3,5,5.3,5,7,96.5,3,5,5.5,0,0,510.6,7,8,49.3,6,8,44.2,1,1,6.0,분당경찰서,51,79,8
수내동어린이집,37.379099,127.114714,경기도 성남시 분당구 황새울로240번길 10-5,15,38,17.1,2,3,53.3,4,11,18.3,4,4,102.1,3,12,123.5,4,5,102.1,0,1,358.5,1,3,20.7,3,6,18.0,1,1,15.0,분당경찰서,36,83,8
구미동어린이집,37.344538,127.112319,경기도 성남시 분당구 금곡로25번길 10,12,32,27.7,1,2,271.3,9,22,20.9,3,6,218.3,4,15,23.9,3,8,218.3,2,4,271.3,2,12,20.7,7,18,17.4,0,0,15.0,분당경찰서,43,119,9
예림어린이집,37.450823,127.157599,경기도 성남시 수정구 산성대로437번길7,27,77,62.2,2,4,154.8,16,50,75.2,1,9,294.3,6,17,54.1,4,13,57.0,0,3,310.3,22,41,127.2,23,57,79.7,0,0,7.0,성남수정경찰서,101,271,8
보듬이나눔이어린이집,37.4065,127.151955,경기도 성남시 분당구 야탑로 303,3,10,14.4,0,0,554.1,11,17,9.2,0,3,315.2,4,9,59.2,2,6,148.6,0,0,553.9,2,2,25.9,9,13,8.8,0,0,20.0,분당경찰서,31,60,6
운중하나어린이집,37.389574,127.072072,경기도 성남시 분당구 판교원로 52,14,46,37.9,0,2,455.0,1,30,235.3,4,11,130.9,1,6,22.4,6,10,57.0,0,1,420.3,0,33,309.2,3,40,261.5,1,2,10.0,분당경찰서,29,179,6
푸르니이매어린이집,37.3938,127.13236,경기도 성남시 분당구 이매로 89번길 16,7,23,61.6,1,1,150.8,7,10,138.7,0,1,421.6,0,1,421.8,0,1,421.8,0,0,567.8,8,16,144.2,3,7,172.4,0,0,8.0,분당경찰서,26,60,5
성남혜은학교,37.450396,127.153922,경기도 성남시 수정구 희망로518번길 8,26,78,64.0,5,9,178.9,24,51,60.0,5,9,0.1,7,19,82.4,6,13,0.1,3,4,0.0,21,47,60.8,18,47,72.6,1,4,7.0,성남수정경찰서,115,277,9
성은특수학교,37.409122,127.143952,경기도 성남시 분당구 돌마로 866,10,22,32.8,0,1,358.5,14,31,48.9,4,9,64.4,4,10,63.4,4,8,63.4,0,2,358.8,6,9,24.7,13,26,16.2,1,4,26.0,분당경찰서,55,118,7
서울국제학교,37.465792,127.128438,경기도 성남시 수정구 성남대로 1518번길 15,16,21,64.5,1,2,0.0,8,12,65.1,1,3,188.1,1,4,208.6,1,3,188.1,0,1,407.4,4,11,58.7,6,23,64.4,0,0,6.0,성남수정경찰서,38,80,8
케이디엘피어학원,37.389127,127.124549,경기도 성남시 분당구 서현로 181,11,26,38.7,2,4,167.8,15,22,29.1,7,14,95.0,10,22,112.0,9,20,95.0,0,1,465.4,7,8,31.0,16,27,22.8,0,0,20.0,분당경찰서,77,144,8
산성3어린이집,37.460461,127.155653,경기도 성남시 수정구 수정로 456번길 19,14,33,30.5,0,0,546.4,0,0,517.9,4,6,162.9,4,5,162.8,4,5,162.8,0,1,482.0,0,0,532.1,0,0,525.8,0,0,8.0,성남수정경찰서,26,50,4
